     2.11           OBSERVATION DATA    M (MIXED)           RINEX VERSION / TYPE
teqc  2015Jun23                         20220329 12:49:16UTCPGM / RUN BY / DATE
OSX ker:10.10.3|Core i5|gcc 4.2 -m64|OSX ker:10.10+|=+      COMMENT
teqc  2015Jun23                         20220329 12:49:15UTCCOMMENT
teqc  2013Mar15     gpsops              20141028 00:07:35UTCCOMMENT
Linux 2.4.21-27.ELsmp|Opteron|gcc -static|Linux x86_64|=+   COMMENT
BIT 2 OF LLI FLAGS DATA COLLECTED UNDER A/S CONDITION       COMMENT
BSHM                                                        MARKER NAME
20705M001                                                   MARKER NUMBER
GGN                 JPL                                     OBSERVER / AGENCY
01704               JAVAD TRE_G3TH DELTA3.5.7b0             REC # / TYPE / VERS
4811A47089          TRM59800.00     SCIS                    ANT # / TYPE
  4396111.1752  3080477.6419  3433499.4619                  APPROX POSITION XYZ
        0.0000        0.0000        0.0000                  ANTENNA: DELTA H/E/N
     1     1                                                WAVELENGTH FACT L1/2
     2    L1    C1                                          # / TYPES OF OBSERV
    30.0000                                                 INTERVAL
                                                            COMMENT
This data is provided as a public service by NASA/JPL.      COMMENT
No warranty is expressed or implied regarding suitability   COMMENT
for use.  For further information, contact:                 COMMENT
Dave Stowers, NASA/JPL m/s 238-600                          COMMENT
4800 Oak Grove Drive, Pasadena CA 91109 USA                 COMMENT
                                                            COMMENT
Forced Modulo Decimation to 30 seconds                      COMMENT
 SNR is mapped to RINEX snr flag value [0-9]                COMMENT
  L1 & L2: min(max(int(snr_dBHz/6), 0), 9)                  COMMENT
pseudorange smoothing corrections not applied               COMMENT
    16                                                      LEAP SECONDS
teqc edited: all GLONASS satellites excluded                COMMENT
teqc edited: all Galileo satellites excluded                COMMENT
  2014    10    27     0     0    0.0000000     GPS         TIME OF FIRST OBS
                                                            END OF HEADER
 14 10 27  0  0  0.0000000  0 11G05G11G30G26G17G15G28G13G24G01G07
 129722386.699 7  24685355.063
 133748483.625 6  25451504.410
 120491238.444 7  22928607.740
 106275111.312 9  20223478.751
 112485737.628 8  21405315.036
 117801497.306 8  22416877.465
 116107373.167 8  22094446.603
 129133937.139 6  24573327.110
 131529878.682 6  25029302.620
 135420673.249 5  25769698.133
 132579985.640 5  25229029.627
 14 10 27  0  0 30.0000000  0 11G05G11G30G26G17G15G28G13G24G01G07
 129802393.715 7  24700581.100
 133773218.114 5  25456211.379
 120550141.568 7  22939816.250
 106284889.621 9  20225339.339
 112452752.835 8  21399038.080
 117736048.148 8  22404422.884
 116171222.749 8  22106596.904
 129246805.380 7  24594805.262
 131448917.637 6  25013897.042
 135390440.179 5  25763942.233
 132656072.247 6  25243512.807
 14 10 27  0  1  0.0000000  0 11G05G11G30G26G17G15G28G13G24G01G07
 129882367.860 7  24715799.592
 133798434.124 5  25461010.980
 120609198.165 7  22951054.601
 106295276.759 9  20227315.958
 112420279.479 8  21392858.650
 117670996.073 8  22392043.704
 116235171.096 8  22118765.420
 129359779.536 7  24616303.490
 131367899.692 6  24998480.525
 135360558.762 5  25758257.315
 132732265.747 6  25258013.905
 14 10 27  0  1 30.0000000  0 11G05G11G30G26G17G15G28G13G24G01G07
 129962312.684 7  24731012.227
 133824137.918 5  25465900.811
 120668414.659 7  22962323.486
 106306278.932 9  20229409.861
 112388325.065 8  21386777.767
 117606349.481 8  22379742.210
 116299223.058 8  22130954.382
 129472865.432 7  24637823.583
 131286831.017 6  24983051.796
 135331037.131 6  25752640.928
 132808571.985 6  25272535.900
 14 10 27  0  2  0.0000000  0 11G05G11G30G26G17G15G28G13G24G01G07
 130042231.241 7  24746221.808
 133850335.523 6  25470886.605
 120727797.811 7  22973623.108
 106317902.672 9  20231621.493
 112356897.094 8  21380797.302
 117542116.811 8  22367518.865
 116363383.720 8  22143163.568
 129586066.344 7  24659366.073
 131205718.595 6  24967617.956
 135301883.579 5  25747095.409
 132884997.592 6  25287084.473
 14 10 27  0  2 30.0000000  0 11G05G11G30G26G17G15G28G13G24G01G07
 130122117.362 7  24761424.372
 133877023.024 6  25475966.388
 120787344.314 7  22984954.707
 106330144.538 9  20233951.031
 112325993.539 8  21374916.535
 117478296.557 8  22355374.498
 116427647.387 8  22155393.140
 129699376.626 7  24680927.637
 131124559.410 6  24952173.408
 135273097.101 5  25741613.221
 132961538.712 6  25301642.973
 14 10 27  0  3  0.0000000  0 11G05G11G30G26G17G15G28G13G24G01G07
 130201967.650 7  24776618.616
 133904199.667 5  25481136.105
 120847053.531 7  22996317.085
 106343003.596 9  20236398.055
 112295614.489 8  21369135.698
 117414890.146 8  22343308.518
 116492011.538 8  22167641.110
 129812792.829 6  24702509.257
 131043352.644 6  24936719.300
 135244678.893 5  25736210.461
 133038194.432 5  25316228.162
 14 10 27  0  3 30.0000000  0 11G05G11G30G26G17G15G28G13G24G01G07
 130281783.860 7  24791808.340
 133931869.823 5  25486401.025
 120906930.234 7  23007710.866
 106356484.310 9  20238963.291
 112265765.809 8  21363455.520
 117351904.309 8  22331322.422
 116556479.080 8  22179908.511
 129926317.432 6  24724111.727
 130962103.711 6  24921259.942
 135216635.533 4  25730870.263
 133114969.449 5  25330837.626
 14 10 27  0  4  0.0000000  0 11G05G11G30G26G17G15G28G13G24G01G07
 130361559.600 7  24806988.419
 133960029.514 6  25491760.553
 120966971.168 7  23019137.247
 106370583.236 9  20241646.270
 112236445.182 8  21357876.102
 117289337.573 8  22319416.440
 116621044.987 8  22192195.343
 130039945.344 6  24745736.415
 130880809.154 6  24905789.273
 135188965.554 6  25725606.830
 133191860.373 5  25345467.393
 14 10 27  0  4 30.0000000  0 11G05G11G30G26G17G15G28G13G24G01G07
 130441292.700 7  24822160.549
 133988678.705 6  25497213.667
 121027177.046 7  23030593.196
 106385300.689 9  20244446.979
 112207654.037 8  21352397.368
 117227192.585 8  22307590.942
 116685708.121 8  22204499.730
 130153673.943 6  24767376.948
 130799469.752 6  24890311.056
 135161671.157 5  25720410.915
 133268867.433 5  25360125.912
 14 10 27  0  5  0.0000000  0 11G05G11G30G26G17G15G28G13G24G01G07
 130520983.916 6  24837325.808
 134017820.424 6  25502757.712
 121087551.545 7  23042082.772
 106400640.014 9  20247365.961
 112179396.912 8  21347020.191
 117165474.737 8  22295846.557
 116750470.565 8  22216824.073
 130267504.664 6  24789037.619
 130718089.403 6  24874825.889
 135134757.795 5  25715287.017
 133345993.669 6  25374804.004
 14 10 27  0  5 30.0000000  0 11G05G11G30G26G17G15G28G13G24G01G07
 130600626.105 6  24852482.978
 134047450.462 6  25508396.087
 121148090.950 7  23053602.698
 106416597.090 9  20250402.662
 112151671.071 8  21341744.035
 117104182.366 8  22284182.899
 116815326.252 8  22229165.748
 130381431.710 7  24810718.363
 130636664.706 6  24859331.259
 135108223.642 6  25710239.564
 133423227.989 6  25389503.262
 14 10 27  0  6  0.0000000  0 11G05G11G30G26G17G15G28G13G24G01G07
 130680226.753 6  24867630.115
 134077577.998 6  25514129.766
 121208805.035 7  23065156.395
 106433181.421 9  20253558.503
 112124487.349 8  21336571.273
 117043327.040 8  22272602.272
 116880283.270 8  22241526.695
 130495462.230 6  24832418.531
 130555205.518 6  24843829.262
 135082080.176 5  25705264.440
 133500595.112 6  25404223.056
 14 10 27  0  6 30.0000000  0 11G05G11G30G26G17G15G28G13G24G01G07
 130759769.299 6  24882767.033
 134108188.730 5  25519954.328
 121269680.251 7  23076740.635
 106450378.898 9  20256830.936
 112097832.398 8  21331498.729
 116982897.176 8  22261102.813
 116945326.198 8  22253903.769
 130609579.479 7  24854134.545
 130473698.172 6  24828318.241
 135056315.639 6  25700360.793
 133578073.669 6  25418967.331
 14 10 27  0  7  0.0000000  0 11G05G11G30G26G17G15G28G13G24G01G07
 130839256.125 6  24897892.942
 134139287.681 5  25525871.930
 121330722.123 7  23088355.908
 106468194.627 9  20260221.090
 112071713.028 8  21326528.251
 116922899.824 8  22249686.317
 117010458.842 8  22266298.051
 130723787.762 6  24875866.467
 130392148.918 6  24812800.202
 135030937.293 5  25695532.908
 133655668.611 6  25433733.277
 14 10 27  0  7 30.0000000  0 11G05G11G30G26G17G15G28G13G24G01G07
 130918685.901 6  24913006.768
 134170876.067 5  25531883.464
 121391932.503 7  23100003.765
 106486630.024 9  20263729.430
 112046131.711 8  21321660.741
 116863338.918 8  22238351.960
 117075681.217 8  22278709.925
 130838085.830 7  24897616.817
 130310559.557 6  24797273.952
 135005948.368 5  25690777.826
 133733382.007 6  25448522.113
 14 10 27  0  8  0.0000000  0 11G05G11G30G26G17G15G28G13G24G01G07
 130998051.967 6  24928110.203
 134202949.084 5  25537987.460
 121453307.078 7  23111683.143
 106505680.348 9  20267354.522
 112021084.941 8  21316894.284
 116804211.811 8  22227100.417
 117140987.312 8  22291136.984
 130952466.871 7  24919382.956
 130228925.871 6  24781739.634
 134981326.488 4  25686094.549
 133811209.092 6  25463333.162
 14 10 27  0  8 30.0000000  0 11G05G11G30G26G17G15G28G13G24G01G07
 131077358.324 6  24943202.563
 134235512.594 5  25544182.405
 121514852.967 7  23123394.970
 106525352.129 9  20271097.940
 111996580.633 8  21312231.014
 116745527.565 8  22215933.248
 117206382.468 8  22303581.096
 131066935.195 7  24941165.753
 130147255.393 6  24766198.920
 134957052.813 3  25681489.206
 133889156.861 6  25478164.775
 14 10 27  0  9  0.0000000  0 11G05G11G30G26G17G15G28G13G24G01G07
 131156600.680 6  24958283.291
 134268564.882 5  25550470.052
 121576569.078 7  23135139.383
 106545643.713 9  20274959.323
 111972618.291 8  21307671.612
 116687286.947 8  22204850.008
 117271863.516 8  22316041.561
 131181487.785 6  24962965.425
 130065546.842 6  24750650.209
 134933220.136 4  25676959.952
 133967223.278 6  25493020.329
 14 10 27  0  9 30.0000000  0 11G05G11G30G26G17G15G28G13G24G01G07
 131235769.271 6  24973347.763
 134302097.861 6  25556852.727
 121638447.841 7  23146914.135
 106566547.079 9  20278937.185
 111949191.062 8  21303213.364
 116629483.977 8  22193850.856
 117337421.449 7  22328516.891
 131296114.585 6  24984778.030
 129983793.811 6  24735093.357
 134909796.336 4  25672501.697
 134045400.959 6  25507898.003
 14 10 27  0 10  0.0000000  0 11G05G11G30G26G17G15G28G13G24G01G07
 131314863.136 6  24988400.462
 134336113.137 6  25563326.335
 121700491.955 7  23158721.014
 106588064.314 9  20283031.870
 111926302.303 8  21298857.641
 116572123.332 8  22182935.649
 117403057.310 8  22341006.996
 131410815.495 6  25006605.540
 129901998.579 6  24719529.119
 134886772.391 4  25668120.211
 134123693.222 6  25522794.298
 14 10 27  0 10 30.0000000  0 11G05G11G30G26G17G15G28G13G24G01G07
 131393889.121 6  25003438.151
 134370619.546 5  25569892.433
 121762710.921 7  23170561.127
 106610204.227 9  20287244.590
 111903962.555 8  21294606.662
 116515216.098 8  22172106.390
 117468778.453 8  22353513.580
 131525597.969 6  25028447.604
 129820170.918 5  24703956.458
 134864154.517 5  25663818.846
 134202108.377 6  25537717.563
 14 10 27  0 11  0.0000000  0 11G05G11G30G26G17G15G28G13G24G01G07
 131472833.498 7  25018460.594
 134405605.413 5  25576548.609
 121825093.618 7  23182432.110
 106632955.139 9  20291574.246
 111882160.824 8  21290457.954
 116458753.081 8  22161361.634
 117534572.344 8  22366033.675
 131640448.456 6  25050303.710
 129738300.100 6  24688376.911
 134841933.017 4  25659588.235
 134280634.757 6  25552659.428
 14 10 27  0 11 30.0000000  0 12G05G11G30G26G17G15G28G13G24G01G12G07
 131551690.679 6  25033467.475
 134441066.642 6  25583295.778
 121887636.940 7  23194333.690
 106656313.256 9  20296019.019
 111860894.734 9  21286411.153
 116402732.650 8  22150701.614
 117600434.102 8  22378566.716
 131755360.918 6  25072170.902
 129656383.414 6  24672788.533
 134820106.504 5  25655437.130
 130837549.677 5  24897559.838
 134359269.187 6  25567623.092
 14 10 27  0 12  0.0000000  0 12G05G11G30G26G17G15G28G13G24G01G12G07
 131630470.666 7  25048459.243
 134477016.044 5  25590136.589
 121950354.369 7  23206268.651
 106680291.346 9  20300582.046
 111840178.272 9  21282468.958
 116347170.494 8  22140128.346
 117666375.246 8  22391115.285
 131870346.840 6  25094051.677
 129574434.932 6  24657194.389
 134798689.962 5  25651357.897
 130750170.874 6  24880932.179
 134438025.095 6  25582609.237
 14 10 27  0 12 30.0000000  0 11G05G11G30G26G17G15G28G13G24G01G12
 131709167.254 6  25063434.860
 134513448.495 5  25597070.676
 122013242.026 7  23218235.682
 106704884.958 9  20305261.845
 111820008.449 9  21278630.661
 116292064.053 8  22129641.945
 117732390.299 8  22403677.459
 131985399.703 5  25115943.927
 129492450.334 5  24641592.662
 134777681.163 5  25647361.055
 130662963.158 6  24864336.042
 14 10 27  0 13  0.0000000  0 11G05G11G30G26G17G15G28G13G24G01G12
 131787772.847 7  25078393.255
 134550358.665 5  25604094.790
 122076295.083 7  23230234.510
 106730088.403 9  20310057.883
 111800380.868 9  21274895.671
 116237410.475 8  22119241.798
 117798472.906 8  22416252.591
 132100512.443 6  25137850.251
 129410425.450 6  24625985.243
 134757076.778 6  25643444.347
 130575922.317 6  24847772.781
 14 10 27  0 13 30.0000000  0 11G05G11G30G26G17G15G28G13G24G01G12
 131866286.081 6  25093335.204
 134587746.984 5  25611208.321
 122139515.512 7  23242264.600
 106755902.892 9  20314970.210
 111781297.840 9  21271264.319
 116183213.461 8  22108928.237
 117864623.365 8  22428840.239
 132215684.401 6  25159766.469
 129328362.801 6  24610368.899
 134736880.241 5  25639595.649
 130489051.088 6  24831240.506
 14 10 27  0 14  0.0000000  0 11G05G11G30G26G17G15G28G13G24G01G12
 131944689.916 6  25108254.099
 134625599.037 5  25618411.741
 122202889.005 7  23254324.470
 106782313.431 9  20319996.019
 111762745.410 9  21267733.662
 116129460.188 8  22098699.285
 117930825.707 8  22441438.230
 132330898.802 6  25181690.103
 129246248.070 6  24594742.108
 134717078.876 6  25635832.006
 130402335.416 6  24814737.708
 14 10 27  0 14 30.0000000  0 11G05G11G30G26G17G15G28G13G24G01G12
 132023004.396 5  25123157.746
 134663936.201 5  25625707.010
 122266438.247 7  23266417.073
 106809341.922 9  20325139.457
 111744747.385 9  21264308.811
 116076175.064 8  22088559.810
 117997100.826 8  22454050.012
 132446176.137 6  25203628.498
 129164104.541 6  24579112.779
 134697696.985 5  25632140.672
 130315798.482 6  24798270.481
 14 10 27  0 15  0.0000000  0 11G05G11G30G26G17G15G28G13G24G01G12
 132101220.905 5  25138043.480
 134702751.224 5  25633096.003
 122330156.988 7  23278543.026
 106836981.273 9  20330398.960
 111727297.596 9  21260988.467
 116023353.726 8  22078508.065
 118063441.060 8  22466673.901
 132561507.476 6  25225574.936
 129081926.272 6  24563472.626
 134678729.647 5  25628528.695
 130229434.518 6  24781835.703
 14 10 27  0 15 30.0000000  0 11G05G11G30G26G17G15G28G13G24G01G12
 132179336.451 5  25152909.430
 134742043.311 6  25640570.575
 122394045.068 7  23290700.358
 106865230.471 9  20335774.858
 111710396.249 9  21257772.102
 115970997.434 8  22068544.726
 118129844.631 8  22479310.471
 132676890.390 6  25247532.050
 128999713.543 6  24547828.045
 134660178.295 5  25624998.927
 130143243.503 6  24765434.879
 14 10 27  0 16  0.0000000  0 10G11G30G26G17G15G28G13G24G01G12
 134781814.071 6  25648140.221
 122458105.282 7  23302889.588
 106894091.387 9  20341266.900
 111694046.771 9  21254661.157
 115919110.998 8  22058671.110
 118196312.593 8  22491958.480
 132792325.245 6  25269498.324
 128917469.518 6  24532176.989
 134642047.151 6  25621554.436
 130057228.998 6  24749067.779
 14 10 27  0 16 30.0000000  0 10G11G30G26G17G15G28G13G24G01G12
 134822060.725 4  25655797.788
 122522335.961 7  23315113.170
 106923561.530 9  20346875.115
 111678247.867 9  21251654.222
 115867693.980 8  22048887.401
 118262841.674 8  22504618.290
 132907807.922 5  25291474.946
 128835192.869 6  24516520.592
 134624336.003 6  25618182.214
 129971389.680 6  24732732.209
 14 10 27  0 17  0.0000000  0 10G11G30G26G17G15G28G13G24G01G12
 134862777.733 4  25663547.050
 122586732.559 7  23327367.164
 106953635.482 9  20352597.924
 111662995.247 9  21248751.827
 115816743.952 8  22039191.276
 118329425.837 8  22517289.376
 133023331.490 5  25313459.767
 128752879.691 6  24500857.287
 134607041.681 6  25614890.807
 129885721.597 6  24716430.035
 14 10 27  0 17 30.0000000  0  9G30G26G17G15G28G13G24G01G12
 122651303.958 7  23339654.992
 106984321.119 9  20358436.853
 111648298.349 9  21245955.189
 115766271.355 8  22029586.965
 118396072.214 8  22529971.986
 133138902.703 5  25335452.839
 128670539.119 6  24485187.866
 134590174.776 6  25611683.116
 129800234.096 6  24700161.925
 14 10 27  0 18  0.0000000  0  9G30G26G17G15G28G13G24G01G12
 122716043.860 7  23351974.620
 107015611.214 9  20364391.191
 111634151.122 9  21243262.856
 115716271.277 8  22020072.465
 118462772.776 8  22542664.626
 133254512.396 4  25357458.455
 128588165.305 6  24469512.096
 134573730.080 6  25608552.615
 129714921.261 6  24683925.401
 14 10 27  0 18 30.0000000  0  8G30G26G17G15G28G24G01G12
 122780955.257 7  23364326.848
 107047507.836 9  20370461.024
 111620556.655 9  21240676.076
 115666748.407 8  22010648.365
 118529529.523 8  22555367.885
 128505761.503 6  24453832.142
 134557712.272 6  25605503.517
 129629786.228 6  24667723.680
 14 10 27  0 19  0.0000000  0  8G30G26G17G15G28G24G01G12
 122846033.236 7  23376711.317
 107080005.000 9  20376645.110
 111607510.617 9  21238193.712
 115617699.568 8  22001314.596
 118596335.791 8  22568080.786
 128423323.485 6  24438144.440
 134542117.524 6  25602536.487
 129544824.689 6  24651557.137
 14 10 27  0 19 30.0000000  0  8G30G26G17G15G28G24G01G12
 122911279.587 7  23389126.495
 107113103.587 9  20382943.709
 111595015.060 9  21235816.076
 115569128.064 8  21992071.791
 118663191.773 8  22580803.091
 128340853.455 6  24422452.339
 134526949.323 6  25599649.003
 129460038.829 6  24635423.521
 14 10 27  0 20  0.0000000  0  8G30G26G17G15G28G24G01G12
 122976701.034 7  23401575.899
 107146809.162 9  20389357.735
 111583077.021 9  21233544.009
 115521042.051 8  21982921.405
 118730102.705 8  22593536.058
 128258358.861 6  24406752.686
 134512215.555 6  25596842.757
 129375435.816 6  24619323.710
 14 10 27  0 20 30.0000000  0  8G30G26G17G15G28G24G01G12
 123042293.379 7  23414057.961
 107181116.548 9  20395886.011
 111571692.617 9  21231377.675
 115473439.007 8  21973862.019
 118797062.829 8  22606277.869
 128175835.731 6  24391049.530
 134497913.526 6  25594126.511
 129291011.671 6  24603258.129
 14 10 27  0 21  0.0000000  0  8G30G26G17G15G28G24G01G12
 123108052.782 7  23426571.883
 107216020.755 9  20402528.040
 111560858.326 9  21229315.908
 115426316.278 8  21964895.637
 118864066.926 8  22619028.215
 128093280.684 6  24375339.719
 134484040.485 6  25591481.818
 129206763.267 6  24587226.163
 14 10 27  0 21 30.0000000  0  8G30G26G17G15G28G24G01G12
 123173985.748 7  23439118.373
 107251527.201 9  20409284.575
 111550580.434 9  21227359.999
 115379682.755 8  21956022.073
 118931119.968 7  22631788.430
 128010701.158 6  24359626.684
 134470604.499 6  25588927.704
 129122697.468 6  24571228.764
 14 10 27  0 22  0.0000000  0  8G30G26G17G15G28G24G01G12
 123240084.235 7  23451696.452
 107287626.772 9  20416154.340
 111540850.974 9  21225508.445
 115333531.502 8  21947239.136
 118998212.600 7  22644555.242
 127928088.832 6  24343904.774
 134457598.739 5  25586449.870
 129038806.584 6  24555264.397
 14 10 27  0 22 30.0000000  0  8G30G26G17G15G28G24G01G12
 123306351.415 6  23464306.445
 107324321.460 9  20423137.150
 111531673.906 9  21223762.322
 115287866.938 8  21938549.800
 119065346.358 7  22657330.603
 127845448.093 6  24328179.684
 134445027.616 6  25584059.440
 128955093.989 6  24539332.967
 14 10 27  0 23  0.0000000  0  8G30G26G17G15G28G24G01G12
 123372790.825 7  23476949.413
 107361613.604 9  20430233.521
 111523052.954 9  21222121.917
 115242694.571 8  21929953.502
 119132523.500 8  22670113.963
 127762783.366 6  24312449.959
 134432895.939 5  25581749.634
 128871563.793 6  24523437.340
 14 10 27  0 23 30.0000000  0  8G30G26G17G15G28G24G01G12
 123439413.783 7  23489627.183
 107399513.336 9  20437445.732
 111514999.158 9  21220589.032
 115198026.981 8  21921453.166
 119199753.939 7  22682906.968
 127680105.890 6  24296715.358
 134421216.377 6  25579526.477
 128788227.601 6  24507579.965
 14 10 27  0 24  0.0000000  0  8G30G26G17G15G28G24G01G12
 123506206.646 7  23502337.687
 107438005.831 9  20444770.561
 111507498.796 9  21219162.041
 115153851.976 8  21913047.080
 119267022.516 8  22695708.018
 127597402.688 6  24280977.521
 134409976.567 6  25577389.386
 128705072.213 6  24491757.548
 14 10 27  0 24 30.0000000  0  8G30G26G17G15G28G24G01G12
 123573170.969 7  23515081.017
 107477091.468 9  20452208.357
 111500553.713 9  21217840.377
 115110172.821 8  21904735.420
 119334329.360 7  22708516.125
 127514676.227 6  24265233.908
 134399179.171 6  25575333.827
 128622099.641 6  24475966.580
 14 10 27  0 25  0.0000000  0  8G30G26G17G15G28G24G01G12
 123640300.642 7  23527854.907
 107516762.773 9  20459757.374
 111494157.845 9  21216623.286
 115066984.481 8  21896516.929
 119401667.089 7  22721330.256
 127431920.609 6  24249487.182
 134388819.265 6  25573362.450
 128539304.045 6  24460211.505
 14 10 27  0 25 30.0000000  0  8G30G26G17G15G28G24G01G12
 123707602.539 7  23540662.353
 107557025.454 9  20467419.051
 111488318.401 9  21215512.019
 115024295.569 8  21888393.282
 119469041.221 8  22734151.877
 127349143.890 6  24233736.305
 134378905.038 6  25571477.532
 128456692.701 6  24444490.432
 14 10 27  0 26  0.0000000  0  8G30G26G17G15G28G24G01G12
 123775073.118 7  23553502.055
 107597874.625 9  20475192.464
 111483031.762 9  21214505.883
 114982104.049 8  21880365.074
 119536446.979 8  22746978.379
 127266342.881 5  24217976.870
 134369434.117 6  25569672.954
 128374262.627 6  24428804.182
 14 10 27  0 26 30.0000000  0  8G30G26G17G15G28G24G01G12
 123842727.584 7  23566376.241
 107639324.123 9  20483080.079
 111478313.027 9  21213608.026
 114940426.289 8  21872433.712
 119603898.154 8  22759813.651
 127183533.342 6  24202221.085
 134360422.814 6  25567960.084
 128292029.138 6  24413154.773
 14 10 27  0 27  0.0000000  0  8G30G26G17G15G28G24G01G12
 123910553.000 7  23579282.373
 107681359.656 9  20491079.060
 111474149.376 9  21212815.912
 114899250.830 8  21864598.388
 119671380.472 8  22772655.063
 127100703.134 6  24186458.406
 134351859.369 5  25566329.489
 128209979.696 6  24397541.829
 14 10 27  0 27 30.0000000  0  8G30G26G17G15G28G24G01G12
 123978542.071 7  23592220.318
 107723972.754 9  20499188.072
 111470533.430 9  21212127.599
 114858571.913 8  21856857.467
 119738885.277 8  22785501.248
 127017845.391 6  24170689.901
 134343737.741 6  25564785.622
 128128107.315 6  24381961.517
 14 10 27  0 28  0.0000000  0  8G30G26G17G15G28G24G01G12
 124046705.216 7  23605191.913
 107767172.317 9  20507408.892
 111467475.707 9  21211545.685
 114818401.383 8  21849213.474
 119806421.777 8  22798352.900
 126934972.052 6  24154921.079
 134336069.340 6  25563327.701
 128046422.999 6  24366417.904
 14 10 27  0 28 30.0000000  0  8G30G26G17G15G28G24G01G12
 124115048.614 7  23618196.944
 107810963.253 9  20515741.966
 111464982.182 9  21211071.268
 114778746.639 8  21841666.949
 119873994.705 8  22811211.539
 126852089.146 6  24139147.715
 134328861.459 6  25561956.503
 127964933.065 6  24350910.980
 14 10 27  0 29  0.0000000  0  8G30G26G17G15G28G24G01G12
 124183562.093 7  23631233.998
 107855333.933 9  20524185.508
 111463042.348 9  21210701.946
 114739598.691 8  21834217.711
 119941592.700 8  22824075.261
 126769187.268 6  24123372.789
 134322105.159 6  25560669.274
 127883627.928 6  24335439.069
 14 10 27  0 29 30.0000000  0  8G30G26G17G15G28G24G01G12
 124252238.302 7  23644302.887
 107900275.590 9  20532737.381
 111461648.878 8  21210436.882
 114700951.991 8  21826863.364
 120009207.408 7  22836941.205
 126686260.026 6  24107592.980
 134315794.065 6  25559466.157
 127802500.226 7  24320001.447
 14 10 27  0 30  0.0000000  0  8G30G26G17G15G28G24G01G12
 124321087.216 7  23657404.629
 107945796.730 9  20541399.720
 111460811.841 8  21210277.535
 114662817.783 8  21819606.541
 120076847.436 8  22849812.989
 126603318.466 6  24091810.110
 134309939.204 5  25558353.845
 127721560.557 7  24304599.002
 14 10 27  0 30 30.0000000  0  8G30G26G17G15G28G24G01G12
 124390104.822 7  23670538.217
 107991891.868 9  20550171.520
 111460526.916 8  21210223.395
 114625193.223 8  21812446.968
 120144507.264 8  22862688.242
 126520358.995 6  24076023.933
 134304537.657 6  25557326.247
 127640805.007 6  24289230.236
 14 10 27  0 31  0.0000000  0  9G30G26G17G15G06G28G24G01G12
 124459293.435 7  23683705.642
 108038561.875 9  20559052.385
 111460796.261 8  21210274.779
 114588081.856 8  21805385.159
 133893579.485 6  25479101.872
 120212188.332 8  22875567.727
 126437384.325 6  24060233.126
 134299592.788 5  25556383.781
 127560236.382 6  24273898.699
 14 10 27  0 31 30.0000000  0  9G30G26G17G15G06G28G24G01G12
 124528656.598 7  23696904.232
 108085808.744 9  20568043.479
 111461623.481 8  21210432.033
 114551488.581 8  21798421.267
 133818881.970 6  25464886.873
 120279892.811 8  22888451.073
 126354399.555 6  24044441.421
 134295109.048 5  25555528.560
 127479858.454 6  24258602.796
 14 10 27  0 32  0.0000000  0  9G30G26G17G15G06G28G24G01G12
 124598190.465 7  23710135.946
 108133627.151 9  20577142.769
 111463004.222 9  21210694.727
 114515410.856 8  21791556.231
 133744016.458 6  25450640.762
 120347615.878 8  22901338.394
 126271401.443 6  24028648.687
 134291083.702 6  25554765.483
 127399668.275 6  24243344.198
 14 10 27  0 32 30.0000000  0  9G30G26G17G15G06G28G24G01G12
 124667894.576 7  23723400.117
 108182015.094 9  20586350.669
 111464937.928 9  21211062.739
 114479849.280 8  21784788.895
 133668984.836 6  25436361.964
 120415355.844 8  22914229.146
 126188390.294 6  24012852.292
 134287517.268 6  25554086.228
 127319665.021 7  24228120.939
 14 10 27  0 33  0.0000000  0  9G30G26G17G15G06G28G24G01G12
 124737767.204 7  23736695.894
 108230969.306 9  20595666.770
 111467422.783 9  21211535.693
 114444803.854 8  21778119.955
 133593787.637 6  25422051.732
 120483109.739 8  22927121.994
 126105364.634 6  23997051.914
 134284408.888 5  25553494.535
 127239847.468 7  24212931.827
 14 10 27  0 33 30.0000000  0  9G30G26G17G15G06G28G24G01G12
 124807814.230 7  23750025.740
 108280494.020 9  20605090.703
 111470464.153 9  21212113.884
 114410281.340 8  21771550.674
 133518433.286 6  25407712.801
 120550882.278 8  22940019.065
 126022331.786 6  23981251.630
 134281765.517 6  25552992.644
 127160221.822 7  24197779.570
 14 10 27  0 34  0.0000000  0  9G30G26G17G15G06G28G24G01G12
 124878030.730 7  23763387.812
 108330582.760 9  20614622.507
 111474056.943 9  21212797.922
 114376277.930 8  21765079.712
 133442919.289 6  25393342.981
 120618667.471 8  22952917.890
 125939287.656 6  23965448.491
 134279583.184 5  25552575.511
 127080783.638 7  24182662.620
 14 10 27  0 34 30.0000000  0  9G30G26G17G15G06G28G24G01G12
 124948417.452 7  23776781.065
 108381234.654 9  20624261.001
 111478201.528 9  21213586.744
 114342795.850 8  21758708.474
 133367248.770 6  25378943.088
 120686465.125 7  22965819.382
 125856233.773 6  23949643.244
 134277863.404 5  25552249.650
 127001534.059 7  24167580.714
 14 10 27  0 35  0.0000000  0  9G30G26G17G15G06G28G24G01G12
 125018978.021 7  23790208.941
 108432451.726 9  20634007.421
 111482901.566 9  21214481.051
 114309839.993 8  21752437.196
 133291427.800 6  25364513.609
 120754277.780 7  22978723.722
 125773174.848 6  23933837.677
 134276610.903 5  25552010.404
 126922476.557 6  24152536.159
 14 10 27  0 35 30.0000000  0  9G30G26G17G15G06G28G24G01G12
 125089711.151 7  23803669.012
 108484231.117 9  20643860.586
 111488155.072 9  21215480.690
 114277410.034 8  21746265.955
 133215457.620 6  25350059.754
 120822103.037 7  22991630.716
 125690110.013 6  23918031.067
 134275825.113 5  25551859.605
 126843610.620 6  24137527.744
 14 10 27  0 36  0.0000000  0  9G30G26G17G15G06G28G24G01G12
 125160612.042 7  23817161.087
 108536566.274 9  20653819.516
 111493956.996 9  21216584.748
 114245502.550 8  21740194.675
 133139335.772 6  25335573.117
 120889934.770 7  23004538.341
 125607036.078 6  23902222.996
 134275502.231 5  25551800.877
 126764931.701 7  24122556.497
 14 10 27  0 36 30.0000000  0  9G30G26G17G15G06G28G24G01G12
 125231683.945 7  23830685.034
 108589458.841 9  20663884.832
 111500310.373 9  21217793.801
 114214121.886 8  21734222.588
 133063068.141 6  25321059.897
 120957775.244 7  23017447.916
 125523956.765 6  23886413.162
 134275646.393 5  25551826.311
 126686443.242 7  24107621.446
 14 10 27  0 37  0.0000000  0  9G30G26G17G15G06G28G24G01G12
 125302933.084 7  23844244.034
 108642913.233 9  20674057.130
 111507220.900 8  21219108.787
 114183275.379 8  21728352.299
 132986663.423 6  25306519.434
 121025630.023 7  23030360.171
 125440879.423 6  23870603.469
 134276264.576 5  25551944.792
 126608151.666 7  24092723.122
 14 10 27  0 37 30.0000000  0  9G30G26G17G15G06G28G24G01G12
 125374354.312 7  23857833.965
 108696922.743 9  20684334.632
 111514683.126 8  21220528.982
 114152958.782 8  21722583.835
 132910119.019 6  25291953.509
 121093492.687 7  23043274.408
 125357799.566 6  23854794.833
 134277352.517 6  25552152.884
 126530052.519 7  24077862.016
 14 10 27  0 38  0.0000000  0  9G30G26G17G15G06G28G24G01G12
 125445940.994 7  23871457.302
 108751478.942 9  20694716.231
 111522689.689 9  21222052.200
 114123166.803 8  21716914.428
 132833430.780 6  25277359.816
 121161355.737 7  23056187.662
 125274711.814 6  23838984.497
 134278904.355 5  25552444.912
 126452139.244 7  24063034.900
 14 10 27  0 38 30.0000000  0  9G30G26G17G15G06G28G24G01G12
 125517702.719 7  23885113.508
 108806589.641 9  20705203.432
 111531249.623 8  21223681.073
 114093910.227 8  21711347.029
 132756610.952 6  25262741.782
 121229227.461 7  23069104.254
 125191626.711 6  23823173.378
 134280930.445 5  25552832.908
 126374421.694 7  24048244.872
 14 10 27  0 39  0.0000000  0  9G30G26G17G15G06G28G24G01G12
 125589621.726 7  23898799.767
 108862235.394 9  20715792.540
 111540345.388 9  21225411.976
 114065172.077 8  21705878.063
 132679644.219 6  25248093.337
 121297089.233 7  23082017.051
 125108527.277 6  23807360.516
 134283413.975 6  25553307.352
 126296882.183 6  24033488.759
 14 10 27  0 39 30.0000000  0  9G30G26G17G15G06G28G24G01G12
 125661713.611 7  23912518.052
 108918430.033 9  20726485.985
 111549992.230 9  21227248.154
 114036969.429 8  21700511.693
 132602548.861 6  25233425.415
 121364955.797 7  23094931.605
 125025430.678 6  23791547.284
 134286371.189 5  25553868.993
 126219537.276 7  24018771.051
 14 10 27  0 40  0.0000000  0  9G30G26G17G15G06G28G24G01G12
 125733982.481 7  23926269.620
 108975175.900 9  20737284.470
 111560193.434 9  21229189.137
 114009307.009 8  21695247.664
 132525331.535 5  25218728.231
 121432830.386 7  23107848.450
 124942342.008 6  23775735.918
 134289806.958 5  25554521.496
 126142390.825 6  24004090.066
 14 10 27  0 40 30.0000000  0  9G30G26G17G15G06G28G24G01G12
 125806422.076 7  23940054.935
 109032464.822 9  20748186.158
 111570942.183 9  21231234.595
 113982179.722 8  21690085.841
 132447988.539 6  25204011.255
 121500705.768 7  23120764.333
 124859255.809 6  23759924.738
 134293715.727 5  25555261.825
 126065436.940 6  23989448.428
 14 10 27  0 41  0.0000000  0  9G30G26G17G15G06G28G24G01G12
 125879036.634 7  23953872.751
 109090299.302 9  20759191.724
 111582241.987 9  21233384.864
 113955592.863 8  21685026.427
 132370526.876 5  25189271.006
 121568585.303 7  23133681.181
 124776177.140 6  23744115.809
 134298102.572 5  25556098.351
 125988680.097 7  23974842.392
 14 10 27  0 41 30.0000000  0  9G30G26G17G15G06G28G24G01G12
 125951828.582 7  23967725.338
 109148679.968 9  20770301.133
 111594094.404 9  21235640.073
 113929549.965 8  21680070.839
 132292951.505 6  25174509.132
 121636470.405 7  23146599.008
 124693109.724 6  23728308.084
 134302970.434 5  25557026.282
 125912123.166 7  23960272.643
 14 10 27  0 42  0.0000000  0  9G30G26G17G15G06G28G24G01G12
 126024791.694 7  23981608.845
 109207598.659 9  20781513.070
 111606493.442 9  21237999.758
 113904045.801 8  21675217.518
 132215258.897 6  25159724.219
 121704354.019 7  23159517.467
 124610048.260 6  23712501.367
 134308313.898 5  25558047.034
 125835760.367 6  23945740.300
 14 10 27  0 42 30.0000000  0  9G30G26G17G15G06G28G24G01G12
 126097918.291 7  23995524.370
 109267045.930 9  20792825.408
 111619430.713 9  21240461.712
 113879073.355 8  21670465.046
 132137444.064 6  25144918.261
 121772227.679 7  23172433.924
 124526986.454 6  23696696.372
 134314126.000 5  25559147.990
 125759583.790 6  23931244.277
 14 10 27  0 43  0.0000000  0  9G30G26G17G15G06G28G24G01G12
 126171218.069 7  24009473.682
 109327029.508 9  20804240.114
 111632915.349 9  21243027.629
 113854643.449 8  21665816.153
 132059519.297 5  25130086.306
 121840100.044 7  23185348.777
 124443935.257 6  23680892.312
 134320416.969 5  25560346.280
 125683604.038 6  23916786.861
 14 10 27  0 43 30.0000000  0  9G30G26G17G15G06G28G24G01G12
 126244686.276 7  24023453.553
 109387542.867 9  20815755.219
 111646941.690 9  21245696.974
 113830752.450 8  21661269.556
 131981482.692 6  25115237.249
 121907965.942 7  23198263.469
 124360890.817 6  23665088.599
 134327182.823 5  25561633.166
 125607816.180 6  23902364.824
 14 10 27  0 44  0.0000000  0  9G30G26G17G15G06G28G24G01G12
 126318328.824 7  24037468.423
 109448589.949 9  20827372.453
 111661515.092 9  21248470.086
 113807407.017 8  21656827.241
 131903342.778 6  25100369.461
 121975830.227 7  23211177.361
 124277860.299 6  23649288.418
 134334429.989 6  25563013.842
 125532226.060 6  23887980.775
 14 10 27  0 44 30.0000000  0  9G30G26G17G15G06G28G24G01G12
 126392148.223 6  24051514.682
 109510171.403 9  20839090.856
 111676637.670 9  21251348.037
 113784610.690 8  21652489.484
 131825104.906 6  25085480.226
 122043694.622 7  23224091.900
 124194847.447 6  23633492.380
 134342161.641 6  25564484.062
 125456837.662 7  23873635.633
 14 10 27  0 45  0.0000000  0  9G30G26G17G15G06G28G24G01G12
 126466144.313 6  24065595.770
 109572285.094 9  20850910.392
 111692308.554 9  21254329.943
 113762364.077 8  21648256.136
 131746771.446 6  25070572.726
 122111558.079 7  23237006.076
 124111853.243 6  23617699.143
 134350378.168 5  25566046.841
 125381650.551 7  23859327.787
 14 10 27  0 45 30.0000000  0  9G30G26G17G15G06G28G24G01G12
 126540317.879 6  24079710.870
 109634929.810 9  20862831.571
 111708527.649 9  21257416.409
 113740668.753 8  21644127.008
 131668346.104 6  25055647.527
 122179420.410 7  23249919.321
 124028879.963 7  23601909.648
 134359081.026 5  25567704.251
 125306665.766 7  23845058.000
 14 10 27  0 46  0.0000000  0  9G30G26G17G15G06G28G24G01G12
 126614650.279 6  24093855.005
 109698085.069 9  20874849.448
 111725275.735 9  21260603.475
 113719507.212 8  21640100.130
 131589812.983 6  25040705.874
 122247262.467 7  23262829.539
 123945909.197 6  23586121.499
 134368252.039 5  25569447.737
 125231864.717 7  23830823.694
 14 10 27  0 46 30.0000000  0  9G30G26G17G15G06G28G24G01G12
 126689152.963 7  24108032.515
 109761760.301 9  20886966.463
 111742563.805 9  21263893.041
 113698891.459 8  21636177.721
 131511186.347 6  25025744.158
 122315095.085 7  23275738.163
 123862954.765 7  23570335.891
 134377903.211 6  25571287.311
 125157259.264 6  23816625.227
 14 10 27  0 47  0.0000000  0  9G30G26G17G15G06G28G24G01G12
 126763828.731 7  24122244.382
 109825956.302 9  20899182.760
 111760393.585 9  21267286.013
 113678825.396 8  21632359.519
 131432471.772 6  25010762.992
 122382920.473 7  23288644.212
 123780020.069 6  23554553.461
 134388037.946 5  25573213.862
 125082852.674 6  23802466.143
 14 10 27  0 47 30.0000000  0  9G30G26G17G15G06G28G24G01G12
 126838683.372 7  24136487.710
 109890676.986 9  20911498.769
 111778769.968 9  21270782.788
 113659315.515 8  21628647.145
 131353677.893 6  24995770.120
 122450743.274 7  23301550.913
 123697112.107 6  23538776.625
 134398662.489 5  25575234.858
 125008650.640 7  23788347.073
 14 10 27  0 48  0.0000000  0  9G30G26G17G15G06G28G24G01G12
 126913707.673 6  24150763.984
 109955911.034 9  20923912.245
 111797683.637 9  21274382.178
 113640353.332 8  21625038.111
 131274798.224 6  24980759.474
 122518553.754 7  23314454.663
 123614222.983 6  23523003.069
 134409768.195 6  25577349.547
 124934644.547 7  23774264.724
 14 10 27  0 48 30.0000000  0  9G30G26G17G15G06G28G24G01G12
 126988902.946 7  24165074.665
 110021657.747 9  20936423.424
 111817134.861 9  21278083.383
 113621940.938 8  21621534.393
 131195837.087 6  24965735.159
 122586352.585 7  23327356.118
 123531356.142 6  23507234.324
 134421356.788 5  25579554.128
 124860835.689 7  23760219.454
 14 10 27  0 49  0.0000000  0  9G30G26G17G15G06G28G24G01G12
 127064267.601 7  24179415.221
 110087913.532 9  20949031.352
 111837121.125 9  21281886.838
 113604077.630 8  21618134.936
 131116795.674 6  24950692.290
 122654137.518 7  23340254.862
 123448510.540 6  23491469.582
 134433427.170 6  25581853.782
 124787223.253 7  23746210.724
 14 10 27  0 49 30.0000000  0  9G30G26G17G15G06G28G24G01G12
 127139802.650 7  24193789.208
 110154677.430 9  20961736.045
 111857642.570 9  21285792.016
 113586765.265 8  21614840.774
 131037677.882 6  24935637.068
 122721908.895 7  23353151.038
 123365688.344 6  23475708.939
 134445980.761 6  25584243.317
 124713808.276 7  23732240.011
 14 10 27  0 50  0.0000000  0  9G30G26G17G15G06G28G24G01G12
 127215506.890 7  24208194.685
 110221946.056 9  20974537.026
 111878697.324 9  21289798.268
 113570003.240 8  21611650.953
 130958485.417 6  24920566.772
 122789664.935 7  23366045.612
 123282890.014 7  23459954.275
 134459016.789 6  25586721.490
 124640589.251 7  23718306.245
 14 10 27  0 50 30.0000000  0  9G30G26G17G15G06G28G24G01G12
 127291381.740 7  24222634.026
 110289718.901 8  20987433.614
 111900286.280 9  21293906.606
 113553793.719 8  21608565.930
 130879222.600 6  24905484.750
 122857406.679 6  23378936.214
 123200118.241 7  23444202.471
 134472537.226 6  25589296.128
 124567568.665 7  23704410.976
 14 10 27  0 51  0.0000000  0  9G30G26G17G15G06G28G24G01G12
 127367432.939 6  24237105.804
 110357999.571 9  21000427.061
 111922414.233 9  21298117.428
 113538142.983 8  21605587.966
 130799898.064 6  24890389.452
 122925138.781 7  23391825.607
 123117380.425 7  23428458.591
 134486548.072 6  25591962.041
 124494752.343 7  23690555.166
 14 10 27  0 51 30.0000000  0  9G30G26G17G15G06G28G24G01G12
 127443653.541 6  24251610.140
 110426779.017 9  21013515.493
 111945073.095 9  21302429.002
 113523044.803 8  21602715.149
 130720507.816 6  24875280.801
 122992853.827 7  23404710.765
 123034670.579 7  23412718.442
 134501042.749 6  25594722.612
 124422133.637 7  23676736.256
 14 10 27  0 52  0.0000000  0  9G30G26G17G15G06G28G24G01G12
 127520045.672 6  24266146.928
 110496057.260 9  21026698.507
 111968263.947 9  21306842.525
 113508502.396 8  21599947.413
 130641056.897 6  24860162.377
 123060553.633 7  23417593.867
 122951992.588 7  23396984.906
 134516023.885 6  25597571.436
 124349714.542 7  23662955.651
 14 10 27  0 52 30.0000000  0  9G30G26G17G15G06G28G24G01G12
 127596609.112 6  24280716.166
 110565832.132 9  21039976.443
 111991986.446 9  21311356.289
 113494515.635 8  21597285.781
 130561548.125 6  24845031.805
 123128237.223 7  23430473.098
 122869347.338 7  23381258.289
 134531491.654 5  25600513.522
 124277495.425 7  23649213.448
 14 10 27  0 53  0.0000000  0  9G30G26G17G15G06G28G24G01G12
 127673345.659 6  24295317.809
 110636103.169 9  21053348.778
 112016241.065 9  21315971.825
 113481087.157 8  21594730.593
 130481986.174 6  24829891.732
 123195906.037 7  23443350.762
 122786738.437 7  23365538.735
 134547448.081 6  25603550.521
 124205478.258 7  23635508.498
 14 10 27  0 53 30.0000000  0  9G30G26G17G15G06G28G24G01G12
 127750257.513 7  24309956.615
 110706870.455 9  21066815.030
 112041028.730 9  21320689.023
 113468219.664 8  21592282.019
 130402376.290 6  24814742.890
 123263561.455 7  23456224.632
 122704169.157 7  23349826.309
 134563895.654 6  25606680.447
 124133665.640 7  23621842.462
 14 10 27  0 54  0.0000000  0  9G30G26G17G15G06G28G24G01G12
 127827334.432 6  24324623.115
 110778121.690 9  21080373.572
 112066338.955 9  21325505.335
 113455903.448 8  21589938.558
 130322711.223 6  24799583.960
 123331192.822 7  23469094.579
 122621630.963 7  23334119.004
 134580824.530 6  25609902.922
 124062047.680 7  23608214.507
 14 10 27  0 54 30.0000000  0  9G30G26G17G15G06G28G24G01G12
 127904569.614 6  24339319.251
 110849847.990 9  21094022.992
 112092163.783 9  21330419.721
 113444132.803 8  21587698.988
 130242987.178 6  24784412.169
 123398793.177 7  23481958.190
 122539118.580 7  23318417.049
 134598228.214 6  25613213.155
 123990617.653 7  23594621.030
 14 10 27  0 55  0.0000000  0  9G30G26G17G15G06G28G24G01G12
 127981974.647 6  24354049.120
 110922058.688 9  21107764.146
 112118513.678 9  21335434.037
 113432919.612 8  21585564.987
 130163218.776 6  24769232.230
 123466373.311 7  23494819.140
 122456645.215 7  23302722.564
 134616118.529 6  25616617.955
 123919387.279 7  23581066.588
 14 10 27  0 55 30.0000000  0  9G30G26G17G15G06G28G24G01G12
 128059544.324 6  24368810.379
 110994746.400 9  21121595.958
 112145382.760 9  21340547.059
 113422259.203 8  21583536.277
 130083403.838 6  24754043.149
 123533927.677 7  23507674.253
 122374206.685 7  23287036.115
 134634490.422 6  25620114.384
 123848351.663 7  23567548.737
 14 10 27  0 56  0.0000000  0  9G30G26G17G15G06G28G24G01G12
 128137285.477 6  24383602.026
 111067915.862 9  21135519.905
 112172776.682 9  21345759.736
 113412158.985 8  21581614.350
 130003552.289 6  24738846.953
 123601462.661 7  23520524.801
 122291811.674 7  23271355.729
 134653351.182 6  25623702.847
 123777518.415 7  23554069.622
 14 10 27  0 56 30.0000000  0  9G30G26G17G15G06G28G24G01G12
 128215198.378 6  24398429.910
 111141565.164 9  21149534.756
 112200694.823 8  21351072.311
 113402619.560 8  21579798.692
 129923667.490 6  24723647.610
 123668978.009 7  23533373.448
 122209462.081 7  23255685.914
 134672701.247 5  25627383.164
 123706887.514 7  23540628.892
 14 10 27  0 57  0.0000000  0  9G30G26G17G15G06G28G24G01G12
 128293275.939 6  24413286.243
 111215684.884 9  21163639.228
 112229128.862 9  21356483.312
 113393634.543 8  21578089.114
 129843745.348 6  24708439.541
 123736466.381 7  23546215.403
 122127152.307 7  23240023.019
 134692533.651 5  25631157.662
 123636452.355 7  23527226.043
 14 10 27  0 57 30.0000000  0  9G30G26G17G15G06G28G24G01G12
 128371515.332 6  24428176.813
 111290270.160 9  21177832.508
 112258075.185 9  21361991.913
 113385201.248 8  21576484.676
 129763786.232 7  24693224.421
 123803924.465 7  23559052.551
 122044880.821 7  23224367.790
 134712845.822 6  25635022.446
 123566210.559 7  23513860.255
 14 10 27  0 58  0.0000000  0  9G30G26G17G15G06G28G24G01G12
 128449935.055 6  24443098.709
 111365337.315 9  21192117.291
 112287551.055 9  21367600.781
 113377339.052 8  21574988.612
 129683811.732 7  24678004.717
 123871370.231 7  23571886.848
 121962668.307 7  23208722.621
 134733656.549 6  25638983.228
 123496180.558 7  23500534.018
 14 10 27  0 58 30.0000000  0  9G30G26G17G15G06G28G24G01G12
 128528516.133 6  24458053.891
 111440865.006 9  21206489.887
 112317536.935 8  21373306.817
 113370029.020 9  21573597.810
 129603805.920 7  24662780.607
 123938784.555 7  23584715.837
 121880496.756 7  23193086.366
 134754946.870 6  25643034.467
 123426343.569 7  23487243.863
 14 10 27  0 59  0.0000000  0  9G30G26G17G15G06G28G24G01G12
 128607261.598 6  24473037.297
 111516854.347 9  21220950.132
 112348034.531 8  21379109.853
 113363275.103 9  21572312.478
 129523775.180 6  24647550.628
 124006170.093 7  23597538.377
 121798371.133 7  23177458.118
 134776720.137 5  25647175.988
 123356703.081 7  23473990.648
 14 10 27  0 59 30.0000000  0  9G30G26G17G15G06G28G24G01G12
 128686177.037 6  24488054.150
 111593308.446 9  21235498.720
 112379048.421 9  21385012.144
 113357083.191 8  21571133.952
 129443728.029 6  24632318.100
 124073532.260 7  23610357.678
 121716298.748 7  23161839.614
 134798981.943 6  25651413.146
 123287265.108 7  23460777.192
 14 10 27  1  0  0.0000000  0  9G30G26G17G15G06G28G24G01G12
 128765255.594 6  24503102.882
 111670218.365 9  21250134.323
 112410570.615 9  21391010.499
 113351446.738 8  21570061.134
 129363660.874 6  24617081.967
 124140863.717 7  23623170.226
 121634274.337 7  23146230.951
 134821725.664 6  25655740.785
 123218022.927 7  23447601.133
 14 10 27  1  0 30.0000000  0  9G30G26G17G15G06G28G24G01G12
 128844508.970 6  24518183.988
 111747593.396 9  21264858.158
 112442611.999 9  21397107.581
 113346377.595 8  21569096.520
 129283588.520 6  24601844.802
 124208175.546 7  23635978.952
 121552311.016 7  23130633.851
 134844962.929 6  25660162.951
 123148988.522 7  23434465.144
 14 10 27  1  1  0.0000000  0  9G30G26G17G15G06G28G24G01G12
 128923924.956 6  24533296.870
 111825419.246 9  21279668.069
 112475158.935 9  21403301.385
 113341863.799 8  21568237.612
 129203502.032 6  24586604.224
 124275455.663 7  23648782.771
 121470398.853 7  23115046.760
 134868681.840 5  25664675.025
 123080150.146 7  23421364.897
 14 10 27  1  1 30.0000000  0  9G30G26G17G15G06G28G24G01G12
 129003504.226 6  24548440.797
 111903694.252 9  21294563.282
 112508210.995 9  21409590.663
 113337907.082 8  21567484.246
 129123405.205 6  24571361.741
 124342704.437 7  23661579.263
 121388539.610 7  23099469.788
 134892883.018 6  25669281.760
 123011508.419 7  23408302.677
 14 10 27  1  2  0.0000000  0  9G30G26G17G15G06G28G24G01G12
 129083246.392 7  24563614.199
 111982415.818 9  21309543.389
 112541766.415 9  21415976.228
 113334506.971 8  21566837.590
 129043300.959 6  24556118.876
 124409921.782 7  23674370.612
 121306735.046 7  23083902.580
 134917566.203 6  25673980.158
 122943063.481 7  23395277.628
 14 10 27  1  2 30.0000000  0  9G30G26G17G15G06G28G24G01G12
 129163151.358 7  24578819.876
 112061581.510 9  21324608.402
 112575824.547 9  21422457.462
 113331663.690 8  21566296.325
 128963192.396 7  24540876.418
 124477106.135 7  23687154.438
 121224986.679 7  23068346.663
 134942731.327 6  25678770.702
 122874814.977 7  23382290.534
 14 10 27  1  3  0.0000000  0  9G30G26G17G15G06G28G24G01G12
 129243220.797 7  24594056.097
 112141190.783 9  21339757.561
 112610385.638 9  21429034.162
 113329379.231 8  21565862.024
 128883084.440 7  24525630.447
 124544259.680 7  23699934.224
 121143297.609 7  23052801.605
 134968380.077 6  25683649.669
 122806765.259 7  23369341.426
 14 10 27  1  3 30.0000000  0  9G30G26G17G15G06G28G24G01G12
 129323444.353 7  24609322.893
 112221231.086 9  21354988.591
 112645438.135 9  21435704.339
 113327643.227 8  21565531.667
 128802970.017 7  24510384.511
 124611371.761 7  23712705.290
 121061659.812 7  23037266.595
 134994502.140 5  25688620.411
 122738904.158 7  23356427.346
 14 10 27  1  4  0.0000000  0  9G30G26G17G15G06G28G24G01G12
 129403826.148 7  24624619.107
 112301704.141 9  21370302.194
 112680985.231 9  21442468.443
 113326460.542 8  21565306.476
 128722856.430 6  24495139.469
 124678446.217 7  23725469.337
 120980078.881 7  23021742.229
 135021101.788 6  25693681.884
 122671236.468 7  23343550.322
 14 10 27  1  4 30.0000000  0  9G30G26G17G15G06G28G24G01G12
 129484373.245 7  24639946.946
 112382614.828 9  21385699.024
 112717032.646 9  21449328.077
 113325838.134 8  21565187.989
 128642754.140 7  24479897.416
 124745490.118 7  23738227.184
 120898563.651 7  23006230.138
 135048185.930 6  25698835.532
 122603769.233 7  23330713.157
 14 10 27  1  5  0.0000000  0  9G30G26G17G15G06G28G24G01G12
 129565084.860 6  24655305.269
 112463960.064 9  21401178.361
 112753578.771 8  21456283.076
 113325775.702 8  21565176.304
 128562665.623 7  24464658.609
 124812502.568 7  23750979.207
 120817115.428 7  22990731.093
 135075753.840 5  25704081.241
 122536502.063 7  23317913.398
 14 10 27  1  5 30.0000000  0  9G30G26G17G15G06G28G24G01G12
 129645954.034 6  24670693.134
 112545730.468 9  21416738.846
 112790614.659 9  21463330.616
 113326266.346 8  21565269.919
 128482587.139 6  24449419.506
 124879476.150 7  23763723.377
 120735728.813 7  22975243.771
 135103798.415 5  25709417.883
 122469428.089 7  23305148.666
 14 10 27  1  6  0.0000000  0  9G30G26G17G15G06G28G24G01G12
 129726979.574 6  24686113.237
 112627922.592 9  21432379.593
 112828138.776 8  21470470.850
 113327308.841 8  21565467.843
 128402520.908 6  24434181.465
 124946409.794 7  23776461.225
 120654404.171 7  22959768.121
 135132318.437 6  25714846.372
 122402546.447 7  23292420.513
 14 10 27  1  6 30.0000000  0  9G30G26G17G15G06G28G24G01G12
 129808171.196 6  24701563.435
 112710543.964 8  21448101.720
 112866159.120 9  21477705.915
 113328913.556 9  21565773.005
 128322479.979 6  24418950.810
 125013313.175 7  23789192.447
 120573153.653 7  22944306.634
 135161323.602 6  25720365.136
 122335867.170 7  23279731.456
 14 10 27  1  7  0.0000000  0  9G30G26G17G15G06G28G24G01G12
 129889520.806 6  24717042.558
 112793584.123 9  21463903.687
 112904666.666 8  21485033.600
 113331072.314 8  21566184.196
 128242459.523 6  24403723.869
 125080178.040 7  23801915.843
 120491971.162 7  22928858.014
 135190805.747 5  25725974.239
 122269382.317 7  23267080.171
 14 10 27  1  7 30.0000000  0  9G30G26G17G15G06G28G24G01G12
 129971024.042 6  24732553.395
 112877036.371 8  21479784.155
 112943655.817 9  21492453.274
 113333781.143 8  21566699.615
 128162458.652 6  24388500.738
 125146999.914 7  23814632.218
 120410853.990 7  22913422.084
 135220760.467 5  25731676.122
 122203087.681 7  23254465.745
 14 10 27  1  8  0.0000000  0  9G30G26G17G15G06G28G24G01G12
 130052677.819 6  24748091.292
 112960895.317 8  21495742.193
 112983121.970 9  21499963.414
 113337036.703 8  21567319.158
 128082477.546 6  24373281.502
 125213775.414 7  23827339.241
 120329800.771 7  22897997.864
 135251184.469 5  25737465.132
 122136980.879 7  23241885.587
 14 10 27  1  8 30.0000000  0  9G30G26G17G15G06G28G24G01G12
 130134494.978 6  24763661.158
 113045171.512 8  21511779.101
 113023077.087 9  21507566.782
 113340851.970 8  21568045.037
 128002532.548 6  24358068.816
 125280517.727 7  23840039.060
 120248826.753 7  22882589.096
 135282090.550 5  25743346.558
 122071074.939 7  23229344.167
 14 10 27  1  9  0.0000000  0  9G30G26G17G15G06G28G24G01G12
 130216468.586 6  24779259.125
 113129855.620 8  21527894.223
 113063512.740 9  21515261.229
 113345220.181 8  21568876.616
 127922619.982 6  24342861.097
 125347219.556 6  23852731.674
 120167926.343 7  22867194.373
 135313471.549 5  25749317.090
 122005363.273 7  23216839.483
 14 10 27  1  9 30.0000000  0  9G30G26G17G15G06G28G24G01G12
 130298596.522 6  24794888.381
 113214943.320 8  21544085.762
 113104425.592 9  21523046.467
 113350139.398 8  21569812.600
 127842741.213 6  24327659.427
 125413879.034 7  23865416.640
 120087099.763 7  22851813.617
 135345325.354 5  25755378.927
 121939843.709 7  23204372.272
 14 10 27  1 10  0.0000000  0  9G30G26G17G15G06G28G24G01G12
 130380884.349 6  24810545.872
 113300437.674 8  21560355.062
 113145819.915 9  21530923.752
 113355614.946 8  21570854.404
 127762905.174 6  24312466.889
 125480501.678 6  23878093.902
 120006354.353 7  22836447.831
 135377657.106 6  25761530.716
 121874522.151 7  23191941.248
 14 10 27  1 10 30.0000000  0  9G30G26G17G15G06G28G24G01G12
 130463334.781 6  24826237.769
 113386339.188 8  21576701.374
 113187697.224 9  21538893.106
 113361649.977 8  21572002.940
 127683118.024 6  24297284.339
 125547090.172 7  23890766.221
 119925694.930 7  22821099.407
 135410469.570 6  25767775.949
 121809402.011 7  23179549.004
 14 10 27  1 11  0.0000000  0  9G30G26G17G15G06G28G24G01G12
 130545930.390 6  24841951.956
 113472627.983 8  21593121.487
 113230038.537 9  21546950.124
 113368226.642 8  21573254.371
 127603365.759 6  24282108.237
 125613626.908 7  23903428.305
 119845106.146 7  22805763.286
 135443744.971 5  25774105.539
 121744465.712 7  23167192.540
 14 10 27  1 11 30.0000000  0  9G30G26G17G15G06G28G24G01G12
 130628672.227 6  24857698.938
 113559302.974 8  21609615.281
 113272843.896 9  21555095.968
 113375346.430 8  21574609.052
 127523652.977 6  24266940.428
 125680113.398 7  23916080.187
 119764590.853 7  22790442.630
 135477484.464 5  25780529.645
 121679714.778 7  23154870.562
 14 10 27  1 12  0.0000000  0  9G30G26G17G15G06G28G24G01G12
 130711576.020 6  24873473.746
 113646377.344 8  21626185.200
 113316127.658 9  21563332.434
 113383024.678 8  21576069.962
 127443998.751 6  24251783.073
 125746565.147 7  23928725.878
 119684166.978 7  22775137.925
 135511703.264 6  25787039.898
 121615165.560 7  23142587.152
 14 10 27  1 12 30.0000000  0  9G30G26G17G15G06G28G24G01G12
 130794635.029 6  24889280.549
 113733842.145 8  21642828.926
 113359881.759 9  21571658.518
 113391254.763 8  21577636.644
 127364399.888 6  24236635.013
 125812975.668 7  23941363.672
 119603830.123 7  22759850.422
 135546394.508 5  25793640.943
 121550811.114 7  23130340.741
 14 10 27  1 13  0.0000000  0  9G30G26G17G15G06G28G24G01G12
 130877852.586 6  24905116.028
 113821698.303 8  21659547.709
 113404108.242 9  21580074.271
 113400040.397 8  21579307.899
 127284863.184 6  24221498.990
 125879348.306 7  23953993.051
 119523585.029 7  22744580.202
 135581561.309 5  25800331.799
 121486655.130 7  23118132.085
 14 10 27  1 13 30.0000000  0  9G30G26G17G15G06G28G24G01G12
 130961223.276 6  24920982.863
 113909938.025 8  21676339.132
 113448800.342 9  21588578.800
 113409375.762 8  21581084.719
 127205386.699 6  24206375.584
 125945677.819 7  23966615.205
 119443428.796 7  22729326.923
 135617198.009 5  25807113.130
 121422692.587 7  23105960.984
 14 10 27  1 14  0.0000000  0  9G30G26G17G15G06G28G24G01G12
 131044751.199 6  24936875.886
 113998563.133 8  21693204.127
 113493960.875 9  21597172.816
 113419265.012 8  21582966.791
 127125978.068 6  24191264.469
 126011968.400 7  23979230.771
 119363367.184 7  22714092.234
 135653308.311 6  25813985.696
 121358928.076 7  23093826.477
 14 10 27  1 14 30.0000000  0  9G30G26G17G15G06G28G24G01G12
 131128434.007 6  24952801.718
 114087568.944 8  21710141.164
 113539586.312 9  21605855.030
 113429705.371 8  21584953.356
 127046638.530 6  24176166.985
 126078217.803 7  23991836.599
 119283400.547 7  22698874.520
 135689889.604 5  25820946.086
 121295359.308 7  23081730.162
 14 10 27  1 15  0.0000000  0  9G30G26G17G15G06G28G24G01G12
 131212267.192 6  24968753.743
 114176948.569 8  21727149.400
 113585670.548 9  21614624.470
 113440692.244 8  21587044.157
 126967367.042 6  24161081.336
 126144421.771 7  24004435.043
 119203526.307 7  22683675.573
 135726937.121 6  25827998.596
 121231982.409 7  23069670.270
 14 10 27  1 15 30.0000000  0  9G30G26G17G15G06G28G24G01G12
 131296252.633 7  24984737.621
 114266701.531 8  21744228.499
 113632214.123 9  21623481.631
 113452227.344 8  21589238.905
 126888169.014 6  24146011.496
 126210582.202 7  24017023.955
 119123748.540 7  22668494.359
 135764452.458 5  25835136.167
 121168799.346 7  23057647.113
 14 10 27  1 16  0.0000000  0  9G30G26G17G15G06G28G24G01G12
 131380388.499 6  25000747.073
 114356823.640 8  21761378.070
 113679214.148 9  21632425.554
 113464309.116 8  21591538.214
 126809046.145 6  24130954.076
 126276697.556 7  24029605.883
 119044067.496 7  22653332.279
 135802433.419 5  25842361.663
 121105808.648 7  23045659.555
 14 10 27  1 16 30.0000000  0  9G30G26G17G15G06G28G24G01G12
 131464675.047 7  25016786.986
 114447312.719 8  21778597.662
 113726668.997 9  21641455.791
 113476937.555 8  21593941.449
 126730002.282 6  24115912.910
 126342768.256 7  24042179.119
 118964485.806 7  22638187.575
 135840880.158 5  25849681.119
 121043010.500 7  23033709.562
 14 10 27  1 17  0.0000000  0  8G30G26G17G15G06G28G24G12
 131549115.199 6  25032854.246
 114538169.394 8  21795887.403
 113774580.418 9  21650572.733
 113490115.140 8  21596448.772
 126651043.949 6  24100887.538
 126408797.489 7  24054743.943
 118885008.465 7  22623063.371
 120980408.641 7  23021796.873
 14 10 27  1 17 30.0000000  0  8G30G26G17G15G06G28G24G12
 131633707.325 6  25048952.818
 114629389.714 8  21813245.849
 113822945.492 9  21659776.759
 113503840.107 8  21599060.798
 126572173.034 6  24085879.027
 126474783.680 7  24067300.840
 118805635.741 7  22607959.201
 120918001.709 7  23009921.871
 14 10 27  1 18  0.0000000  0  8G30G26G17G15G06G28G24G12
 131718448.831 6  25065077.524
 114720968.688 8  21830672.679
 113871760.072 9  21669065.662
 113518109.830 9  21601776.480
 126493390.623 6  24070888.335
 126540724.656 7  24079849.348
 118726367.448 7  22592874.803
 120855787.414 7  22998082.216
 14 10 27  1 18 30.0000000  0  8G30G26G17G15G06G28G24G12
 131803337.795 6  25081231.085
 114812902.029 8  21848167.411
 113921021.140 9  21678439.768
 113532922.074 8  21604595.149
 126414698.278 6  24055912.027
 126606618.695 7  24092388.410
 118647204.197 8  22577810.401
 120793763.972 7  22986278.546
 14 10 27  1 19  0.0000000  0  8G30G26G17G15G06G28G24G12
 131888372.723 6  25097412.973
 114905185.898 8  21865728.467
 113970725.793 9  21687898.249
 113548275.021 9  21607516.613
 126336098.203 7  24040954.849
 126672464.674 7  24104918.421
 118568146.619 8  22562766.867
 120731930.422 7  22974514.079
 14 10 27  1 19 30.0000000  0  8G30G26G17G15G06G28G24G12
 131973554.799 6  25113622.226
 114997819.161 8  21883356.023
 114020873.762 9  21697440.921
 113564169.210 8  21610541.168
 126257595.233 7  24026016.934
 126738264.255 7  24117440.456
 118489197.696 8  22547743.386
 120670288.096 7  22962782.663
 14 10 27  1 20  0.0000000  0  8G30G26G17G15G06G28G24G12
 132058878.945 6  25129858.147
 115090794.290 8  21901048.661
 114071458.457 9  21707067.142
 113580599.953 8  21613668.180
 126179187.839 7  24011096.090
 126804012.263 7  24129951.933
 118410354.828 8  22532740.210
 120608832.156 7  22951087.620
 14 10 27  1 20 30.0000000  0  8G30G26G17G15G06G28G24G12
 132144351.699 6  25146120.858
 115184115.546 8  21918806.644
 114122484.978 9  21716776.818
 113597573.405 8  21616897.834
 126100886.259 7  23996196.434
 126869715.652 7  24142454.707
 118331627.189 8  22517758.750
 120547569.473 7  22939430.372
 14 10 27  1 21  0.0000000  0  8G30G26G17G15G06G28G24G12
 132229969.994 6  25162413.894
 115277777.499 8  21936630.635
 114173949.020 9  21726570.171
 113615085.821 8  21620230.129
 126022691.084 7  23981316.071
 126935371.751 7  24154948.928
 118253014.238 8  22502798.303
 120486497.874 7  22927808.915
 14 10 27  1 21 30.0000000  0  8G30G26G17G15G06G28G24G12
 132315733.715 6  25178735.466
 115371777.711 8  21954517.688
 114225848.843 8  21736446.635
 113633137.073 8  21623665.049
 125944605.868 7  23966457.510
 127000981.007 7  24167433.750
 118174517.978 8  22487861.297
 120425616.777 8  22916223.781
 14 10 27  1 22  0.0000000  0  8G30G26G17G15G06G28G24G12
 132401641.187 6  25195082.054
 115466112.058 8  21972469.235
 114278181.393 9  21746404.875
 113651724.680 8  21627202.208
 125866632.529 7  23951619.628
 127066541.827 7  24179909.306
 118096138.249 8  22472946.168
 120364925.839 7  22904673.892
 14 10 27  1 22 30.0000000  0  8G30G26G17G15G06G28G24G12
 132487697.196 6  25211460.385
 115560782.990 8  21990484.302
 114330950.049 8  21756446.526
 113670853.429 8  21630842.623
 125788779.537 7  23936803.768
 127132059.514 7  24192376.821
 118017883.139 8  22458054.931
 120304429.552 7  22893162.227
 14 10 27  1 23  0.0000000  0  8G30G26G17G15G06G28G24G12
 132573891.760 5  25227861.282
 115655778.296 8  22008561.358
 114384143.531 8  21766568.649
 113690513.285 8  21634583.481
 125711040.736 7  23922011.450
 127197524.512 7  24204835.077
